[{"id_localidad":1,"nombre":"Aguascalientes","lon":"-102.296047","lat":"21.879823"},{"id_localidad":2,"nombre":"Granja Adelita","lon":"-102.373531","lat":"21.871875"},{"id_localidad":3,"nombre":"Agua Azul","lon":"-102.357122","lat":"21.883756"},{"id_localidad":4,"nombre":"Rancho Alegre","lon":"-102.372746","lat":"21.854599"},{"id_localidad":5,"nombre":"Los Arbolitos [Rancho]","lon":"-102.357295","lat":"21.780181"},{"id_localidad":6,"nombre":"Ardillas de Abajo (Las Ardillas)","lon":"-102.191921","lat":"21.945068"},{"id_localidad":7,"nombre":"Arellano","lon":"-102.273955","lat":"21.801773"},{"id_localidad":8,"nombre":"Bajío los Vázquez","lon":"-102.124817","lat":"21.747494"},{"id_localidad":9,"nombre":"Bajío de Montoro","lon":"-102.290131","lat":"21.757883"},{"id_localidad":10,"nombre":"Residencial San Nicolás [Baños la Cantera]","lon":"-102.355422","lat":"21.849498"},{"id_localidad":11,"nombre":"Buenavista de Peñuelas","lon":"-102.293195","lat":"21.719147"},{"id_localidad":12,"nombre":"Cabecita 3 Marías (Rancho Nuevo)","lon":"-102.412992","lat":"21.774683"},{"id_localidad":13,"nombre":"Cañada Grande de Cotorina","lon":"-102.236461","lat":"21.784063"},{"id_localidad":14,"nombre":"Cañada Honda [Estación]","lon":"-102.196986","lat":"22.007754"},{"id_localidad":15,"nombre":"Los Caños","lon":"-102.466863","lat":"21.78255"},{"id_localidad":16,"nombre":"El Cariñán","lon":"-102.370724","lat":"21.894413"},{"id_localidad":17,"nombre":"El Carmen [Granja]","lon":"-102.323276","lat":"21.885557"},{"id_localidad":18,"nombre":"El Cedazo (Cedazo de San Antonio)","lon":"-102.310766","lat":"21.698554"},{"id_localidad":19,"nombre":"Centro de Arriba (El Taray)","lon":"-102.498714","lat":"21.731008"},{"id_localidad":20,"nombre":"Cieneguilla (La Lumbrera)","lon":"-102.453537","lat":"21.732276"},{"id_localidad":21,"nombre":"Cobos","lon":"-102.233969","lat":"21.825122"},{"id_localidad":22,"nombre":"El Colorado (El Soyatal)","lon":"-102.168225","lat":"21.904433"},{"id_localidad":23,"nombre":"El Conejal","lon":"-102.208111","lat":"21.916658"},{"id_localidad":24,"nombre":"Cotorina de Abajo","lon":"-102.266516","lat":"21.756608"},{"id_localidad":25,"nombre":"Coyotes","lon":"-102.341314","lat":"21.869293"},{"id_localidad":26,"nombre":"La Huerta (La Cruz)","lon":"-102.448094","lat":"21.687668"},{"id_localidad":27,"nombre":"Cuauhtémoc (Las Palomas)","lon":"-102.351161","lat":"21.756356"},{"id_localidad":28,"nombre":"Los Cuervos (Los Ojos de Agua)","lon":"-102.160798","lat":"21.73089"},{"id_localidad":29,"nombre":"San José [Granja]","lon":"-102.382739","lat":"21.865298"},{"id_localidad":30,"nombre":"La Chiripa","lon":"-102.166586","lat":"21.766347"},{"id_localidad":31,"nombre":"Dolores","lon":"-102.371736","lat":"21.664743"},{"id_localidad":32,"nombre":"Los Dolores","lon":"-102.245433","lat":"21.840385"},{"id_localidad":33,"nombre":"El Duraznillo","lon":"-102.166451","lat":"21.782366"},{"id_localidad":34,"nombre":"Los Durón","lon":"-102.136513","lat":"21.76609"},{"id_localidad":35,"nombre":"La Escondida","lon":"-102.354071","lat":"21.885883"},{"id_localidad":36,"nombre":"Desde el Corazón del Fruto","lon":"-102.346432","lat":"21.899666"},{"id_localidad":37,"nombre":"Valle Redondo","lon":"-102.353023","lat":"21.878049"},{"id_localidad":38,"nombre":"La Fortuna","lon":"-102.329403","lat":"21.832967"},{"id_localidad":39,"nombre":"Lomas del Gachupín","lon":"-102.242425","lat":"21.856659"},{"id_localidad":40,"nombre":"El Carmen (Gallinas Güeras) [Rancho]","lon":"-102.106057","lat":"21.770209"},{"id_localidad":41,"nombre":"La Gloria","lon":"-102.374793","lat":"21.822133"},{"id_localidad":42,"nombre":"Hacienda Nueva","lon":"-102.358812","lat":"21.90731"},{"id_localidad":43,"nombre":"La Haciendita (La Esperanza)","lon":"-102.451476","lat":"21.685867"},{"id_localidad":44,"nombre":"La Herrada","lon":"-102.212601","lat":"21.907652"},{"id_localidad":45,"nombre":"Don Abraham [Rancho]","lon":"-102.346626","lat":"21.892211"},{"id_localidad":46,"nombre":"Puerta de los Hoyos","lon":"-102.199948","lat":"21.755361"},{"id_localidad":47,"nombre":"Las Jaboneras","lon":"-102.116903","lat":"21.745693"},{"id_localidad":48,"nombre":"Jaltomate","lon":"-102.145016","lat":"22.016097"},{"id_localidad":49,"nombre":"General José María Morelos y Pavón (Cañada Honda)","lon":"-102.200656","lat":"22.000604"},{"id_localidad":50,"nombre":"Los Lirios","lon":"-102.343774","lat":"21.875449"},{"id_localidad":51,"nombre":"La Loma de los Negritos","lon":"-102.350271","lat":"21.870212"},{"id_localidad":52,"nombre":"El Malacate","lon":"-102.236082","lat":"21.839182"},{"id_localidad":53,"nombre":"La Mascota","lon":"-102.342004","lat":"21.899032"},{"id_localidad":54,"nombre":"Matamoros [Congregación]","lon":"-102.072276","lat":"21.786394"},{"id_localidad":55,"nombre":"San Isidro","lon":"-102.332555","lat":"21.646488"},{"id_localidad":56,"nombre":"San José","lon":"-102.265826","lat":"21.802327"},{"id_localidad":57,"nombre":"El Molino","lon":"-102.350047","lat":"21.839781"},{"id_localidad":58,"nombre":"Montoro","lon":"-102.293831","lat":"21.776055"},{"id_localidad":59,"nombre":"Los Negritos","lon":"-102.343876","lat":"21.87255"},{"id_localidad":60,"nombre":"El Niágara","lon":"-102.378094","lat":"21.780003"},{"id_localidad":61,"nombre":"Norias de Ojocaliente","lon":"-102.217283","lat":"21.889375"},{"id_localidad":62,"nombre":"El Ocote","lon":"-102.518426","lat":"21.780755"},{"id_localidad":63,"nombre":"Comunidad el Rocío","lon":"-102.237526","lat":"21.878072"},{"id_localidad":64,"nombre":"Las Palomas","lon":"-102.360157","lat":"21.892696"},{"id_localidad":65,"nombre":"Peñuelas (El Cienegal)","lon":"-102.271222","lat":"21.721799"},{"id_localidad":66,"nombre":"Piedras Chinas","lon":"-102.399469","lat":"21.679567"},{"id_localidad":67,"nombre":"Presa de Guadalupe","lon":"-102.314446","lat":"21.764792"},{"id_localidad":68,"nombre":"Soledad de Arriba","lon":"-102.10493","lat":"21.7844"},{"id_localidad":69,"nombre":"La Puerta (Granjas Cariñán)","lon":"-102.378686","lat":"21.886168"},{"id_localidad":70,"nombre":"El Refugio de Peñuelas","lon":"-102.289541","lat":"21.715969"},{"id_localidad":71,"nombre":"El Refugio I","lon":"-102.227305","lat":"21.802905"},{"id_localidad":72,"nombre":"El Rodeo","lon":"-102.334728","lat":"21.888532"},{"id_localidad":73,"nombre":"El Salto de los Salado","lon":"-102.372034","lat":"21.758088"},{"id_localidad":74,"nombre":"Norias del Paso Hondo","lon":"-102.207155","lat":"21.860453"},{"id_localidad":75,"nombre":"San Agustín","lon":"-102.307637","lat":"21.81263"},{"id_localidad":76,"nombre":"San Antonio [Granja]","lon":"-102.367795","lat":"21.899964"},{"id_localidad":77,"nombre":"San Antonio [Granja]","lon":"-102.360689","lat":"21.780132"},{"id_localidad":78,"nombre":"Ejido San Antonio de los Pedroza","lon":"-102.186139","lat":"21.951601"},{"id_localidad":79,"nombre":"San Antonio de Peñuelas","lon":"-102.301305","lat":"21.674431"},{"id_localidad":80,"nombre":"San Felipe [Viñedos]","lon":"-102.366166","lat":"21.883834"},{"id_localidad":81,"nombre":"San Ignacio","lon":"-102.338794","lat":"21.891299"},{"id_localidad":82,"nombre":"San José [Granja]","lon":"-102.332018","lat":"21.886543"},{"id_localidad":83,"nombre":"San José de la Esperanza","lon":"-102.348477","lat":"21.792511"},{"id_localidad":84,"nombre":"San José de la Ordeña","lon":"-102.154189","lat":"21.951039"},{"id_localidad":85,"nombre":"San Luis [Granja]","lon":"-102.346577","lat":"21.853225"},{"id_localidad":86,"nombre":"San Martín (La Cantera)","lon":"-102.35511","lat":"21.85358"},{"id_localidad":87,"nombre":"San Miguel","lon":"-102.382236","lat":"21.904175"},{"id_localidad":88,"nombre":"San Nicolás","lon":"-102.343752","lat":"21.807848"},{"id_localidad":89,"nombre":"San Pascual","lon":"-102.335994","lat":"21.828847"},{"id_localidad":90,"nombre":"San Pedro Cieneguilla","lon":"-102.411339","lat":"21.716637"},{"id_localidad":91,"nombre":"San Rafael I","lon":"-102.440319","lat":"21.701264"},{"id_localidad":92,"nombre":"Santa Cruz de la Presa","lon":"-102.376689","lat":"21.877223"},{"id_localidad":93,"nombre":"Santa Cruz de la Presa (La Tlacuacha)","lon":"-102.379155","lat":"21.854966"},{"id_localidad":94,"nombre":"Santa Gertrudis","lon":"-102.293758","lat":"21.811572"},{"id_localidad":95,"nombre":"Santa María de Gallardo","lon":"-102.113721","lat":"22.047284"},{"id_localidad":96,"nombre":"Santa Teresa","lon":"-102.38558","lat":"21.786476"},{"id_localidad":97,"nombre":"Soledad de Abajo","lon":"-102.104566","lat":"21.77978"},{"id_localidad":98,"nombre":"La Soledad","lon":"-102.379768","lat":"21.683713"},{"id_localidad":99,"nombre":"El Tanque de los Jiménez","lon":"-102.373142","lat":"21.707716"},{"id_localidad":100,"nombre":"Tres Cruces","lon":"-102.336691","lat":"21.863359"},{"id_localidad":101,"nombre":"Tanque el Trigo","lon":"-102.180011","lat":"21.89128"},{"id_localidad":102,"nombre":"El Turicate","lon":"-102.333159","lat":"21.633667"},{"id_localidad":103,"nombre":"La Victoria","lon":"-102.346064","lat":"21.880619"},{"id_localidad":104,"nombre":"Villa Licenciado Jesús Terán (Calvillito)","lon":"-102.187974","lat":"21.824136"},{"id_localidad":105,"nombre":"Viñedos Aguascalientes","lon":"-102.365075","lat":"21.883144"},{"id_localidad":106,"nombre":"Viñedos Santa Mónica","lon":"-102.312178","lat":"21.830088"},{"id_localidad":107,"nombre":"Las Ánimas","lon":"-102.227091","lat":"21.79677"},{"id_localidad":108,"nombre":"La Ademe","lon":"-102.403536","lat":"21.787784"},{"id_localidad":109,"nombre":"La Ahuja (Aguja)","lon":"-102.167016","lat":"21.81579"},{"id_localidad":110,"nombre":"Arroyo Hondo","lon":"-102.212295","lat":"21.842225"},{"id_localidad":111,"nombre":"Asturias","lon":"-102.222328","lat":"21.858965"},{"id_localidad":112,"nombre":"Barandales de San José","lon":"-102.32227","lat":"21.844345"},{"id_localidad":113,"nombre":"El Cardón","lon":"-102.203912","lat":"21.777294"},{"id_localidad":114,"nombre":"El Centavito 2","lon":"-102.332473","lat":"21.845093"},{"id_localidad":115,"nombre":"Chomite","lon":"-102.249714","lat":"21.939158"},{"id_localidad":116,"nombre":"Ciudad de los Niños","lon":"-102.369258","lat":"21.833674"},{"id_localidad":117,"nombre":"San José del Monte (Las Petacas)","lon":"-102.338236","lat":"21.791193"},{"id_localidad":118,"nombre":"La Congoja","lon":"-102.159207","lat":"21.756121"},{"id_localidad":119,"nombre":"El Hotelito","lon":"-102.18597","lat":"21.867906"},{"id_localidad":120,"nombre":"Cuernavaca","lon":"-102.313114","lat":"21.819173"},{"id_localidad":121,"nombre":"La Cueva de los Pericos (Caitaime)","lon":"-102.346334","lat":"21.81997"},{"id_localidad":122,"nombre":"Los Pargas [Rancho]","lon":"-102.255258","lat":"21.811768"},{"id_localidad":123,"nombre":"La Esperanza","lon":"-102.342656","lat":"21.678406"},{"id_localidad":124,"nombre":"Ex-Hacienda de Agostaderito","lon":"-102.361586","lat":"21.767583"},{"id_localidad":125,"nombre":"Ex-Hacienda de Montoro","lon":"-102.294422","lat":"21.77738"},{"id_localidad":126,"nombre":"El Fresno (Las Norias de San Bartolo)","lon":"-102.152207","lat":"21.746079"},{"id_localidad":127,"nombre":"El Gavilán","lon":"-102.327505","lat":"21.904644"},{"id_localidad":128,"nombre":"El Gigante (Arellano)","lon":"-102.301964","lat":"21.787061"},{"id_localidad":129,"nombre":"Granja de Jesús","lon":"-102.321813","lat":"21.901155"},{"id_localidad":130,"nombre":"Rancho Galván","lon":"-102.362281","lat":"21.904492"},{"id_localidad":131,"nombre":"Interpec San Marcos","lon":"-102.280501","lat":"21.761588"},{"id_localidad":132,"nombre":"El Guarda","lon":"-102.208913","lat":"21.79964"},{"id_localidad":133,"nombre":"San Felipe [Rancho]","lon":"-102.331869","lat":"21.831857"},{"id_localidad":134,"nombre":"El Jagüey","lon":"-102.197687","lat":"21.848718"},{"id_localidad":135,"nombre":"La Josefina","lon":"-102.373281","lat":"21.848341"},{"id_localidad":136,"nombre":"Laguna Verde","lon":"-102.165011","lat":"21.76438"},{"id_localidad":137,"nombre":"Lagunas Cuatas","lon":"-102.220624","lat":"21.792292"},{"id_localidad":138,"nombre":"Loma Blanca","lon":"-102.223635","lat":"21.835881"},{"id_localidad":139,"nombre":"El Lucero de la Cruz","lon":"-102.372463","lat":"21.827856"},{"id_localidad":140,"nombre":"El Lucero","lon":"-102.147166","lat":"21.760608"},{"id_localidad":141,"nombre":"Marisol","lon":"-102.279242","lat":"21.760055"},{"id_localidad":142,"nombre":"La Media Luna","lon":"-102.269291","lat":"21.816999"},{"id_localidad":143,"nombre":"Rancho Legendario","lon":"-102.438253","lat":"21.795877"},{"id_localidad":144,"nombre":"El Mirador","lon":"-102.159996","lat":"21.768219"},{"id_localidad":145,"nombre":"El Mirasol","lon":"-102.106813","lat":"21.760422"},{"id_localidad":146,"nombre":"El Mitote","lon":"-102.175439","lat":"21.73499"},{"id_localidad":147,"nombre":"El Mojón","lon":"-102.162856","lat":"21.762024"},{"id_localidad":148,"nombre":"La Noria (San Nicolás de Arriba)","lon":"-102.228054","lat":"21.949949"},{"id_localidad":149,"nombre":"Norias de Cedazo (Cedazo Norias de Montoro)","lon":"-102.312021","lat":"21.772042"},{"id_localidad":150,"nombre":"Ojo de Agua de Palmitas","lon":"-102.228072","lat":"21.860634"},{"id_localidad":151,"nombre":"Playas de Guadalupe","lon":"-102.350363","lat":"21.882959"},{"id_localidad":152,"nombre":"Paso Hondo","lon":"-102.218646","lat":"21.833779"},{"id_localidad":153,"nombre":"La Perla","lon":"-102.335475","lat":"21.901051"},{"id_localidad":154,"nombre":"La Petaquilla (El Milagro)","lon":"-102.156287","lat":"21.763079"},{"id_localidad":155,"nombre":"Lomas del Picacho","lon":"-102.395141","lat":"21.887009"},{"id_localidad":156,"nombre":"El Potrerito","lon":"-102.280758","lat":"21.776434"},{"id_localidad":157,"nombre":"El Potrero Nuevo","lon":"-102.172556","lat":"21.748734"},{"id_localidad":158,"nombre":"Pozo Bravo [Rancho]","lon":"-102.275602","lat":"21.934982"},{"id_localidad":159,"nombre":"Las Mercedes [Rancho]","lon":"-102.227087","lat":"21.828256"},{"id_localidad":160,"nombre":"El Rubio","lon":"-102.404256","lat":"21.687029"},{"id_localidad":161,"nombre":"Sal si Puedes","lon":"-102.223577","lat":"21.794396"},{"id_localidad":162,"nombre":"San Antonio Primero de los Pedroza [Congregación]","lon":"-102.173446","lat":"21.955205"},{"id_localidad":163,"nombre":"San Bartolo","lon":"-102.184999","lat":"21.739651"},{"id_localidad":164,"nombre":"San Gerardo [Condominio]","lon":"-102.295497","lat":"21.806209"},{"id_localidad":165,"nombre":"San Miguelito de Abajo","lon":"-102.226076","lat":"21.778168"},{"id_localidad":166,"nombre":"San Nicolás de Arriba","lon":"-102.213388","lat":"21.961337"},{"id_localidad":167,"nombre":"Santa Clara","lon":"-102.231204","lat":"21.860006"},{"id_localidad":168,"nombre":"Santa Teresa [Granja]","lon":"-102.325225","lat":"21.874899"},{"id_localidad":169,"nombre":"El Socorro","lon":"-102.170946","lat":"21.880792"},{"id_localidad":170,"nombre":"El Tacón","lon":"-102.163314","lat":"21.773233"},{"id_localidad":171,"nombre":"Tanque de Guadalupe","lon":"-102.237222","lat":"21.791111"},{"id_localidad":172,"nombre":"El Tepetate","lon":"-102.207256","lat":"21.764134"},{"id_localidad":173,"nombre":"El Tropezón","lon":"-102.171319","lat":"21.729209"},{"id_localidad":174,"nombre":"Asociación Local Ganadera de Aguascalientes (Cerro del Niágara)","lon":"-102.391879","lat":"21.803323"},{"id_localidad":175,"nombre":"Esperanza [Rancho]","lon":"-102.262583","lat":"21.773624"},{"id_localidad":176,"nombre":"Vista Alegre I (Bella Vista)","lon":"-102.152783","lat":"21.711568"},{"id_localidad":177,"nombre":"Vista Alegre II","lon":"-102.281763","lat":"21.789291"},{"id_localidad":178,"nombre":"Vista Alegre","lon":"-102.275737","lat":"21.787838"},{"id_localidad":179,"nombre":"San Pascual [Rancho]","lon":"-102.327448","lat":"21.836695"},{"id_localidad":180,"nombre":"Granja Puente","lon":"-102.321703","lat":"21.904438"},{"id_localidad":181,"nombre":"Granja Elsa","lon":"-102.269897","lat":"21.785566"},{"id_localidad":182,"nombre":"Las Víboras","lon":"-102.392245","lat":"21.878274"},{"id_localidad":183,"nombre":"Casas Blancas","lon":"-102.383973","lat":"21.88656"},{"id_localidad":184,"nombre":"El Chiflido","lon":"-102.236869","lat":"21.943791"},{"id_localidad":185,"nombre":"Los Hernández","lon":"-102.120793","lat":"21.787826"},{"id_localidad":186,"nombre":"El Ranchito (El Mocho)","lon":"-102.101161","lat":"21.779296"},{"id_localidad":187,"nombre":"Los Barroso","lon":"-102.328144","lat":"21.833261"},{"id_localidad":188,"nombre":"San José de Buenavista","lon":"-102.349859","lat":"21.816937"},{"id_localidad":189,"nombre":"Cieneguilla (La Hacienda)","lon":"-102.447833","lat":"21.716429"},{"id_localidad":190,"nombre":"Cotorina (Coyotes)","lon":"-102.269399","lat":"21.752721"},{"id_localidad":191,"nombre":"La Cotorra","lon":"-102.376067","lat":"21.83253"},{"id_localidad":192,"nombre":"La Coyotera","lon":"-102.119759","lat":"22.004681"},{"id_localidad":193,"nombre":"Montoro (Mesa del Salto)","lon":"-102.302131","lat":"21.756482"},{"id_localidad":194,"nombre":"La Noria (Puerta del Río)","lon":"-102.441904","lat":"21.713833"},{"id_localidad":195,"nombre":"Puerto de Nieto [Rancho]","lon":"-102.467002","lat":"21.803753"},{"id_localidad":196,"nombre":"Las Tinajas","lon":"-102.098144","lat":"21.991989"},{"id_localidad":197,"nombre":"Acapulco","lon":"-102.281761","lat":"21.766716"},{"id_localidad":198,"nombre":"Las Aguilillas","lon":"-102.112878","lat":"21.769631"},{"id_localidad":199,"nombre":"Las Aguilillas","lon":"-102.373564","lat":"21.828031"},{"id_localidad":200,"nombre":"Los Amarraderos","lon":"-102.220424","lat":"21.858883"},{"id_localidad":201,"nombre":"Interpec San Marcos","lon":"-102.286275","lat":"21.940182"},{"id_localidad":202,"nombre":"El Bambú","lon":"-102.230704","lat":"21.835882"},{"id_localidad":203,"nombre":"El Becerro","lon":"-102.183481","lat":"21.98755"},{"id_localidad":204,"nombre":"El Becerro (Lucio Gutiérrez)","lon":"-102.179528","lat":"21.990665"},{"id_localidad":205,"nombre":"Bella Vista (El Coronel)","lon":"-102.095612","lat":"21.789926"},{"id_localidad":206,"nombre":"La Biznaga","lon":"-102.129059","lat":"22.007815"},{"id_localidad":207,"nombre":"Los Pavorreales","lon":"-102.286001","lat":"21.758842"},{"id_localidad":208,"nombre":"Las Bugambilias","lon":"-102.351114","lat":"21.789799"},{"id_localidad":209,"nombre":"Los Cables","lon":"-102.233306","lat":"21.793337"},{"id_localidad":210,"nombre":"Las Cabras","lon":"-102.191","lat":"21.729076"},{"id_localidad":211,"nombre":"La Cachucha (El Salero)","lon":"-102.167331","lat":"21.74241"},{"id_localidad":212,"nombre":"La Campostela","lon":"-102.144544","lat":"22.010357"},{"id_localidad":213,"nombre":"Plan de la Canaleja","lon":"-102.223297","lat":"21.999007"},{"id_localidad":214,"nombre":"El Capirote","lon":"-102.147784","lat":"21.78209"},{"id_localidad":215,"nombre":"El Caracol (La Mesa)","lon":"-102.177291","lat":"21.823499"},{"id_localidad":216,"nombre":"Benjamín Chávez Ruiz [Rancho]","lon":"-102.266826","lat":"21.822217"},{"id_localidad":217,"nombre":"Castillo Fontenac","lon":"-102.363053","lat":"21.796218"},{"id_localidad":218,"nombre":"El Catorce","lon":"-102.075556","lat":"21.792778"},{"id_localidad":219,"nombre":"Ninguno [Centro de Readaptación de Mínima Seguridad]","lon":"-102.371821","lat":"21.882953"},{"id_localidad":220,"nombre":"Ninguno [Centro de Estudios Diferenciados]","lon":"-102.390305","lat":"21.887996"},{"id_localidad":221,"nombre":"SNTSS [Centro Deportivo]","lon":"-102.280003","lat":"21.764554"},{"id_localidad":222,"nombre":"Ninguno [Centro de Neuropsiquiatría]","lon":"-102.355768","lat":"21.839092"},{"id_localidad":223,"nombre":"Las Tres Potencias","lon":"-102.174175","lat":"21.936708"},{"id_localidad":224,"nombre":"San Pedro [Rancho]","lon":"-102.257251","lat":"21.80381"},{"id_localidad":225,"nombre":"El Copete","lon":"-102.313268","lat":"21.7935"},{"id_localidad":226,"nombre":"El Copetillo","lon":"-102.147006","lat":"21.768581"},{"id_localidad":227,"nombre":"Cotorina de Altamira","lon":"-102.262058","lat":"21.758117"},{"id_localidad":228,"nombre":"Ojo de Agua de Palmitas(Las Crucitas) [Segunda Sección]","lon":"-102.230031","lat":"21.857332"},{"id_localidad":229,"nombre":"El Crucero","lon":"-102.155067","lat":"21.773443"},{"id_localidad":230,"nombre":"El Crucero de Calvillito","lon":"-102.181184","lat":"21.865679"},{"id_localidad":231,"nombre":"La Chiripa","lon":"-102.453819","lat":"21.678924"},{"id_localidad":232,"nombre":"La Esperanza","lon":"-102.371939","lat":"21.901594"},{"id_localidad":233,"nombre":"San Carlos","lon":"-102.349449","lat":"21.677716"},{"id_localidad":234,"nombre":"La Estancia","lon":"-102.142854","lat":"21.73153"},{"id_localidad":235,"nombre":"La Florida","lon":"-102.336351","lat":"21.637616"},{"id_localidad":236,"nombre":"La Florida","lon":"-102.366433","lat":"21.853858"},{"id_localidad":237,"nombre":"La Fortuna (La Herradura)","lon":"-102.37462","lat":"21.869752"},{"id_localidad":238,"nombre":"Las Dos Peñas Meyeras","lon":"-102.228879","lat":"21.845346"},{"id_localidad":239,"nombre":"Laureles del Sur [Fraccionamiento]","lon":"-102.270466","lat":"21.824943"},{"id_localidad":240,"nombre":"La Paloma","lon":"-102.217645","lat":"21.854291"},{"id_localidad":241,"nombre":"El Changay","lon":"-102.375526","lat":"21.907003"},{"id_localidad":242,"nombre":"La Luz [Granja]","lon":"-102.302773","lat":"21.833992"},{"id_localidad":243,"nombre":"La Providencia [Granja]","lon":"-102.326479","lat":"21.893029"},{"id_localidad":244,"nombre":"Los Lirios [Granja]","lon":"-102.358933","lat":"21.783551"},{"id_localidad":245,"nombre":"Granja María Luisa","lon":"-102.323671","lat":"21.887748"},{"id_localidad":246,"nombre":"San Francisco [Granja]","lon":"-102.324392","lat":"21.890441"},{"id_localidad":247,"nombre":"El Huizachal","lon":"-102.344461","lat":"21.709763"},{"id_localidad":248,"nombre":"Las Isabeles","lon":"-102.32769","lat":"21.826748"},{"id_localidad":249,"nombre":"El Refugio","lon":"-102.148178","lat":"21.993031"},{"id_localidad":250,"nombre":"La Laguna de los Adobes","lon":"-102.189064","lat":"21.852393"},{"id_localidad":251,"nombre":"Los Lirios","lon":"-102.150385","lat":"21.778689"},{"id_localidad":252,"nombre":"El Jardín","lon":"-102.130503","lat":"21.991105"},{"id_localidad":253,"nombre":"Lomas de Arellano","lon":"-102.260974","lat":"21.778243"},{"id_localidad":254,"nombre":"Lotes de Arellano","lon":"-102.268196","lat":"21.796906"},{"id_localidad":255,"nombre":"Las Marías (Las 3 Marías)","lon":"-102.438186","lat":"21.802602"},{"id_localidad":256,"nombre":"Marlborito","lon":"-102.375968","lat":"21.874938"},{"id_localidad":257,"nombre":"Los Membrillos","lon":"-102.368496","lat":"21.894177"},{"id_localidad":258,"nombre":"Mesa del Salto [Fracción de Montoro]","lon":"-102.277723","lat":"21.760604"},{"id_localidad":259,"nombre":"La Mesa","lon":"-102.180875","lat":"21.823377"},{"id_localidad":260,"nombre":"El Mirador","lon":"-102.369636","lat":"21.847367"},{"id_localidad":261,"nombre":"El Misterio","lon":"-102.300985","lat":"21.798256"},{"id_localidad":262,"nombre":"El Molino","lon":"-102.235268","lat":"21.795412"},{"id_localidad":263,"nombre":"Monte Prieto","lon":"-102.404172","lat":"21.667509"},{"id_localidad":264,"nombre":"Nochtli","lon":"-102.376516","lat":"21.850471"},{"id_localidad":265,"nombre":"Ojo de Agua","lon":"-102.330866","lat":"21.890614"},{"id_localidad":266,"nombre":"Los Olivos [Granja]","lon":"-102.368233","lat":"21.896576"},{"id_localidad":267,"nombre":"Los Órganos","lon":"-102.092497","lat":"21.793098"},{"id_localidad":268,"nombre":"El Paraíso [Rancho]","lon":"-102.225","lat":"21.790278"},{"id_localidad":269,"nombre":"El Paraíso","lon":"-102.108896","lat":"21.788855"},{"id_localidad":270,"nombre":"El Pirul","lon":"-102.243947","lat":"21.846391"},{"id_localidad":271,"nombre":"El Pirul (El Pirulito) [Rancho]","lon":"-102.227984","lat":"21.801538"},{"id_localidad":272,"nombre":"El Plan del Horno","lon":"-102.180797","lat":"22.001186"},{"id_localidad":273,"nombre":"Pocitos","lon":"-102.334772","lat":"21.92249"},{"id_localidad":274,"nombre":"El Pozo","lon":"-102.168434","lat":"21.776961"},{"id_localidad":275,"nombre":"Potrero Grande","lon":"-102.150804","lat":"21.721045"},{"id_localidad":276,"nombre":"Presa Nueva","lon":"-102.373736","lat":"21.845006"},{"id_localidad":277,"nombre":"La Providencia","lon":"-102.345798","lat":"21.708696"},{"id_localidad":278,"nombre":"La Puerta de las Alazanas","lon":"-102.406634","lat":"21.65929"},{"id_localidad":279,"nombre":"Puerta de los Viejitos","lon":"-102.206846","lat":"21.947894"},{"id_localidad":280,"nombre":"Casa Blanca","lon":"-102.377293","lat":"21.829813"},{"id_localidad":281,"nombre":"Dos Arbolitos [Rancho]","lon":"-102.164977","lat":"21.819531"},{"id_localidad":282,"nombre":"El Carmen [Rancho]","lon":"-102.352994","lat":"21.874678"},{"id_localidad":283,"nombre":"El Venado [Rancho]","lon":"-102.208037","lat":"21.94497"},{"id_localidad":284,"nombre":"San Nicolás de Arriba","lon":"-102.219297","lat":"21.972219"},{"id_localidad":285,"nombre":"José María [Rancho]","lon":"-102.455267","lat":"21.692956"},{"id_localidad":286,"nombre":"Ex-Hacienda Montoro [Granjas]","lon":"-102.290456","lat":"21.756173"},{"id_localidad":287,"nombre":"La Estrella [Rancho]","lon":"-102.345145","lat":"21.907978"},{"id_localidad":288,"nombre":"La Luz [Rancho]","lon":"-102.306683","lat":"21.832376"},{"id_localidad":289,"nombre":"La Manga [Rancho]","lon":"-102.334584","lat":"21.714236"},{"id_localidad":290,"nombre":"La Mesa","lon":"-102.282877","lat":"21.765775"},{"id_localidad":291,"nombre":"Peñuelas [Rancho]","lon":"-102.340716","lat":"21.674676"},{"id_localidad":292,"nombre":"Los Boyuyos [Rancho]","lon":"-102.274214","lat":"21.954421"},{"id_localidad":293,"nombre":"El Mitawa [Rancho]","lon":"-102.334375","lat":"21.717249"},{"id_localidad":294,"nombre":"Rancho Nuevo","lon":"-102.176516","lat":"21.955515"},{"id_localidad":295,"nombre":"San Carlos [Rancho]","lon":"-102.358404","lat":"21.806108"},{"id_localidad":296,"nombre":"San Jacinto [Rancho]","lon":"-102.341856","lat":"21.751303"},{"id_localidad":297,"nombre":"San Gerónimo","lon":"-102.416736","lat":"21.794948"},{"id_localidad":298,"nombre":"Don Fidencio [Rancho]","lon":"-102.166797","lat":"21.794847"},{"id_localidad":299,"nombre":"Ninguno","lon":"-102.216997","lat":"21.851578"},{"id_localidad":300,"nombre":"Topogigio [Rancho]","lon":"-102.197041","lat":"21.99765"},{"id_localidad":301,"nombre":"El Refugio II","lon":"-102.228994","lat":"21.805866"},{"id_localidad":302,"nombre":"El Relicario","lon":"-102.220509","lat":"21.845989"},{"id_localidad":303,"nombre":"La Rinconada (La Escondida)","lon":"-102.205201","lat":"21.795466"},{"id_localidad":304,"nombre":"San Isidro de los Esparza","lon":"-102.231425","lat":"21.931353"},{"id_localidad":305,"nombre":"San Isidro [La Estación]","lon":"-102.158427","lat":"22.01583"},{"id_localidad":306,"nombre":"San Cristóbal","lon":"-102.147916","lat":"22.011207"},{"id_localidad":307,"nombre":"San Nicolás de en Medio","lon":"-102.232709","lat":"21.94604"},{"id_localidad":308,"nombre":"San José del Cono","lon":"-102.125414","lat":"21.770868"},{"id_localidad":309,"nombre":"San Isidro","lon":"-102.323923","lat":"21.642105"},{"id_localidad":310,"nombre":"Hacienda San Marcos [Fraccionamiento]","lon":"-102.268102","lat":"21.806807"},{"id_localidad":311,"nombre":"San Martín","lon":"-102.268209","lat":"21.792919"},{"id_localidad":312,"nombre":"San Isidro (Granja Santa Anita)","lon":"-102.305005","lat":"21.756134"},{"id_localidad":313,"nombre":"Olinda [Fraccionamiento]","lon":"-102.326232","lat":"21.841101"},{"id_localidad":314,"nombre":"San Miguel","lon":"-102.296396","lat":"21.763968"},{"id_localidad":315,"nombre":"San Andrés","lon":"-102.3755","lat":"21.845285"},{"id_localidad":316,"nombre":"Viñedos San Felipe [Segunda Sección]","lon":"-102.367386","lat":"21.889573"},{"id_localidad":317,"nombre":"San Judas","lon":"-102.352425","lat":"21.900388"},{"id_localidad":318,"nombre":"San Nicolás de la Cantera","lon":"-102.370403","lat":"21.84139"},{"id_localidad":319,"nombre":"Santa María de Gallardo","lon":"-102.126779","lat":"22.03467"},{"id_localidad":320,"nombre":"La Santa Cruz","lon":"-102.212499","lat":"21.792935"},{"id_localidad":321,"nombre":"Santa Elena","lon":"-102.124276","lat":"21.786381"},{"id_localidad":322,"nombre":"Santa Elena (Tres Pelonas)","lon":"-102.313301","lat":"21.652508"},{"id_localidad":323,"nombre":"Santa Inés","lon":"-102.33171","lat":"21.652819"},{"id_localidad":324,"nombre":"Santa Teresa","lon":"-102.33478","lat":"21.663483"},{"id_localidad":325,"nombre":"El Carmen","lon":"-102.319298","lat":"21.811141"},{"id_localidad":326,"nombre":"San Agustín","lon":"-102.339883","lat":"21.860845"},{"id_localidad":327,"nombre":"El Sabino (San Román)","lon":"-102.191201","lat":"21.999303"},{"id_localidad":328,"nombre":"El Sauz Amarillo","lon":"-102.163159","lat":"22.001557"},{"id_localidad":329,"nombre":"El Salero","lon":"-102.164238","lat":"21.741954"},{"id_localidad":330,"nombre":"Sandovales de Abajo","lon":"-102.341614","lat":"21.918704"},{"id_localidad":331,"nombre":"Sandovales de Arriba","lon":"-102.338796","lat":"21.926039"},{"id_localidad":332,"nombre":"El Gato","lon":"-102.216334","lat":"21.795966"},{"id_localidad":333,"nombre":"Tanque de la Cruz","lon":"-102.370468","lat":"21.691892"},{"id_localidad":334,"nombre":"La Tijera","lon":"-102.155981","lat":"22.011122"},{"id_localidad":335,"nombre":"Biourbe","lon":"-102.280123","lat":"21.94101"},{"id_localidad":336,"nombre":"San José de las Laborcillas (La Casa de Piedra)","lon":"-102.349541","lat":"21.66793"},{"id_localidad":337,"nombre":"Las Trojes","lon":"-102.330408","lat":"21.746429"},{"id_localidad":338,"nombre":"El Varal","lon":"-102.382409","lat":"21.833145"},{"id_localidad":339,"nombre":"El Columpio","lon":"-102.37608","lat":"21.833574"},{"id_localidad":340,"nombre":"Derivados de Fruta","lon":"-102.358164","lat":"21.879579"},{"id_localidad":341,"nombre":"Villa-Eguia [Centro de Convenciones]","lon":"-102.293184","lat":"21.943599"},{"id_localidad":342,"nombre":"El Tajo [Viñedos]","lon":"-102.324684","lat":"21.820519"},{"id_localidad":343,"nombre":"San Francisco (Las Cochineras) [Viñedos]","lon":"-102.296589","lat":"21.815301"},{"id_localidad":344,"nombre":"Las Violetas","lon":"-102.260212","lat":"21.817357"},{"id_localidad":345,"nombre":"Las Víboras","lon":"-102.357857","lat":"21.775152"},{"id_localidad":346,"nombre":"Villa Su","lon":"-102.279254","lat":"21.74618"},{"id_localidad":347,"nombre":"Granja Claudia","lon":"-102.369973","lat":"21.866532"},{"id_localidad":348,"nombre":"El Yerbaníz","lon":"-102.154846","lat":"21.747535"},{"id_localidad":349,"nombre":"Azarco","lon":"-102.2188","lat":"21.816924"},{"id_localidad":350,"nombre":"San José de Buenavista","lon":"-102.335943","lat":"21.809474"},{"id_localidad":351,"nombre":"La Cañada de las Habas","lon":"-102.187256","lat":"21.779802"},{"id_localidad":352,"nombre":"El Carmen","lon":"-102.327712","lat":"21.787683"},{"id_localidad":353,"nombre":"El Cuije","lon":"-102.331958","lat":"21.797612"},{"id_localidad":354,"nombre":"Ex-Hacienda de Peñuelas","lon":"-102.281809","lat":"21.711262"},{"id_localidad":355,"nombre":"Lomas del Sur [Fraccionamiento]","lon":"-102.266713","lat":"21.826854"},{"id_localidad":356,"nombre":"Granjas Fátima","lon":"-102.35619","lat":"21.780102"},{"id_localidad":357,"nombre":"Los Guerrero","lon":"-102.242771","lat":"21.80573"},{"id_localidad":358,"nombre":"Tres Elenas","lon":"-102.27422","lat":"21.848164"},{"id_localidad":359,"nombre":"Lomas del Guarda","lon":"-102.21163","lat":"21.809939"},{"id_localidad":360,"nombre":"Mesa del Tepetate","lon":"-102.184745","lat":"21.787321"},{"id_localidad":361,"nombre":"Lomas de Nueva York","lon":"-102.259994","lat":"21.791602"},{"id_localidad":362,"nombre":"Parque Industrial de Logística Automotriz (PILA)","lon":"-102.320687","lat":"21.725176"},{"id_localidad":363,"nombre":"San Francisquito (Los Salazar)","lon":"-102.13724","lat":"21.784493"},{"id_localidad":364,"nombre":"San Juan del Río","lon":"-102.335092","lat":"21.8431"},{"id_localidad":365,"nombre":"El Suspiro","lon":"-102.337162","lat":"21.916059"},{"id_localidad":366,"nombre":"Santa María","lon":"-102.320699","lat":"21.812875"},{"id_localidad":367,"nombre":"El Porvenir [Granja]","lon":"-102.325833","lat":"21.878549"},{"id_localidad":368,"nombre":"La Lagunita","lon":"-102.127442","lat":"21.780494"},{"id_localidad":369,"nombre":"San Martín (El Zorrillo)","lon":"-102.387872","lat":"21.865144"},{"id_localidad":370,"nombre":"La Nueva Teresa","lon":"-102.389617","lat":"21.85807"},{"id_localidad":371,"nombre":"El Zancudo","lon":"-102.287089","lat":"21.760455"},{"id_localidad":372,"nombre":"El Vergel (El Paraíso)","lon":"-102.331729","lat":"21.90677"},{"id_localidad":373,"nombre":"La Aurora [Fraccionamiento]","lon":"-102.332801","lat":"21.897927"},{"id_localidad":374,"nombre":"La Alcaparra","lon":"-102.211209","lat":"22.002748"},{"id_localidad":375,"nombre":"Ampliación de Calvillito (Colonia la Herrada)","lon":"-102.218713","lat":"21.900834"},{"id_localidad":376,"nombre":"Ampliación del Conejal","lon":"-102.178946","lat":"21.958419"},{"id_localidad":377,"nombre":"Bajío de los Carreones","lon":"-102.193493","lat":"21.877731"},{"id_localidad":378,"nombre":"La Sociedad","lon":"-102.131608","lat":"22.057223"},{"id_localidad":379,"nombre":"Buenavista","lon":"-102.376465","lat":"21.873728"},{"id_localidad":380,"nombre":"La Cabaña","lon":"-102.372457","lat":"21.837008"},{"id_localidad":381,"nombre":"La Calandria","lon":"-102.242758","lat":"21.84648"},{"id_localidad":382,"nombre":"Cañada del Duraznillo","lon":"-102.181068","lat":"21.790574"},{"id_localidad":383,"nombre":"Cañada Grande","lon":"-102.202115","lat":"21.786923"},{"id_localidad":384,"nombre":"El Capirote","lon":"-102.149089","lat":"21.784716"},{"id_localidad":385,"nombre":"El Ocal (El Capirote)","lon":"-102.14617","lat":"21.777014"},{"id_localidad":386,"nombre":"El 14","lon":"-102.433183","lat":"21.792917"},{"id_localidad":387,"nombre":"Granja Margarita (Viñedos Aguascalientes)","lon":"-102.346659","lat":"21.849281"},{"id_localidad":388,"nombre":"Los Olivos [Privada]","lon":"-102.346285","lat":"21.902957"},{"id_localidad":389,"nombre":"El Chamizal","lon":"-102.226947","lat":"21.951307"},{"id_localidad":390,"nombre":"La Chaveña (El Potrerito)","lon":"-102.392704","lat":"21.743803"},{"id_localidad":391,"nombre":"El Chiflido","lon":"-102.156184","lat":"21.805274"},{"id_localidad":392,"nombre":"La Chiripa","lon":"-102.16619","lat":"21.771888"},{"id_localidad":393,"nombre":"El Chorizo","lon":"-102.244053","lat":"21.845848"},{"id_localidad":394,"nombre":"Granja Llamas","lon":"-102.217454","lat":"21.851694"},{"id_localidad":395,"nombre":"Capricho [Club de Golf]","lon":"-102.368122","lat":"21.855506"},{"id_localidad":396,"nombre":"Santa Mónica [Club Hípico]","lon":"-102.337199","lat":"21.821582"},{"id_localidad":397,"nombre":"El Relicario","lon":"-102.225816","lat":"21.83312"},{"id_localidad":398,"nombre":"El Cono","lon":"-102.198506","lat":"21.836969"},{"id_localidad":399,"nombre":"El Copetillo","lon":"-102.152348","lat":"21.770851"},{"id_localidad":400,"nombre":"El Copetillo Chico (La Miseria)","lon":"-102.149537","lat":"21.770042"},{"id_localidad":401,"nombre":"Los Corales","lon":"-102.360377","lat":"21.847269"},{"id_localidad":402,"nombre":"Los Coyotes","lon":"-102.367671","lat":"21.845913"},{"id_localidad":403,"nombre":"La Cruz","lon":"-102.185388","lat":"21.734354"},{"id_localidad":404,"nombre":"Cumbres III","lon":"-102.238131","lat":"21.922149"},{"id_localidad":405,"nombre":"El Dominado (El Relicario)","lon":"-102.217626","lat":"21.838569"},{"id_localidad":406,"nombre":"Los Durón I","lon":"-102.128415","lat":"21.755152"},{"id_localidad":407,"nombre":"Ejido los Negritos","lon":"-102.370018","lat":"21.879721"},{"id_localidad":408,"nombre":"Emiliano Zapata","lon":"-102.240308","lat":"21.796061"},{"id_localidad":409,"nombre":"La Escuadra","lon":"-102.15226","lat":"21.786939"},{"id_localidad":410,"nombre":"El Esfuerzo","lon":"-102.350537","lat":"21.709058"},{"id_localidad":411,"nombre":"Villa Paraíso","lon":"-102.218066","lat":"21.852684"},{"id_localidad":412,"nombre":"Ex-Hacienda de San Ignacio","lon":"-102.345554","lat":"21.897566"},{"id_localidad":413,"nombre":"Frutas Concentradas","lon":"-102.391248","lat":"21.889315"},{"id_localidad":414,"nombre":"Valle de San Ignacio (El Filso)","lon":"-102.339856","lat":"21.902361"},{"id_localidad":415,"nombre":"La Fortuna","lon":"-102.140188","lat":"21.789167"},{"id_localidad":416,"nombre":"Cazadores [Rancho]","lon":"-102.331741","lat":"21.693486"},{"id_localidad":417,"nombre":"Granja Brenda","lon":"-102.359613","lat":"21.886994"},{"id_localidad":418,"nombre":"Granja Chely","lon":"-102.326653","lat":"21.898794"},{"id_localidad":419,"nombre":"Granja Duarte","lon":"-102.340189","lat":"21.875793"},{"id_localidad":420,"nombre":"El Conejal [Granja]","lon":"-102.197771","lat":"21.939097"},{"id_localidad":421,"nombre":"Granja Gemelas","lon":"-102.376002","lat":"21.872098"},{"id_localidad":422,"nombre":"Granja Guadalupe","lon":"-102.370731","lat":"21.904487"},{"id_localidad":423,"nombre":"La Trinidad (La Lucita) [Granja]","lon":"-102.352939","lat":"21.898178"},{"id_localidad":424,"nombre":"Las Granjas (Santa Elena)","lon":"-102.301166","lat":"21.651141"},{"id_localidad":425,"nombre":"Granja Laura Angélica","lon":"-102.342695","lat":"21.875237"},{"id_localidad":426,"nombre":"Granja Lety","lon":"-102.339897","lat":"21.87353"},{"id_localidad":427,"nombre":"Los Jacalitos [Granja]","lon":"-102.234871","lat":"21.947494"},{"id_localidad":428,"nombre":"Granja Lupita","lon":"-102.356568","lat":"21.880102"},{"id_localidad":429,"nombre":"Granja Mariana","lon":"-102.354754","lat":"21.900763"},{"id_localidad":430,"nombre":"Granja Paula Cecilia","lon":"-102.261947","lat":"21.787823"},{"id_localidad":431,"nombre":"Granja Rosales","lon":"-102.216985","lat":"21.854279"},{"id_localidad":432,"nombre":"San Antonio [Granja]","lon":"-102.393301","lat":"21.892067"},{"id_localidad":433,"nombre":"San José [Granja]","lon":"-102.299181","lat":"21.830803"},{"id_localidad":434,"nombre":"Oly [Granja]","lon":"-102.338002","lat":"21.904298"},{"id_localidad":435,"nombre":"Granja Toñita","lon":"-102.307371","lat":"21.83714"},{"id_localidad":436,"nombre":"Granja Vejarano","lon":"-102.365943","lat":"21.895575"},{"id_localidad":437,"nombre":"Huerta Marcela","lon":"-102.381151","lat":"21.880784"},{"id_localidad":438,"nombre":"Las Jarillas [Rancho]","lon":"-102.134186","lat":"21.992866"},{"id_localidad":439,"nombre":"Los Jazminez","lon":"-102.326533","lat":"21.701684"},{"id_localidad":440,"nombre":"Los Jiménez","lon":"-102.337006","lat":"21.900265"},{"id_localidad":441,"nombre":"K-10","lon":"-102.388831","lat":"21.887692"},{"id_localidad":442,"nombre":"La Laborcilla","lon":"-102.353235","lat":"21.675465"},{"id_localidad":443,"nombre":"Veteranos de la Revolución [Colonia]","lon":"-102.355741","lat":"21.844306"},{"id_localidad":444,"nombre":"Los Laureles","lon":"-102.233749","lat":"21.79244"},{"id_localidad":445,"nombre":"Los Laureles","lon":"-102.124427","lat":"21.788408"},{"id_localidad":446,"nombre":"La Lobera","lon":"-102.342981","lat":"21.842128"},{"id_localidad":447,"nombre":"Ninguno","lon":"-102.379777","lat":"21.792048"},{"id_localidad":448,"nombre":"La Salada","lon":"-102.345152","lat":"21.808889"},{"id_localidad":449,"nombre":"La Esperanza","lon":"-102.375572","lat":"21.748052"},{"id_localidad":450,"nombre":"Ninguno","lon":"-102.411024","lat":"21.796647"},{"id_localidad":451,"nombre":"Ninguno","lon":"-102.375572","lat":"21.742925"},{"id_localidad":452,"nombre":"San Francisco de la Cruz","lon":"-102.307383","lat":"21.82063"},{"id_localidad":453,"nombre":"Ninguno","lon":"-102.280364","lat":"21.768668"},{"id_localidad":454,"nombre":"Ninguno","lon":"-102.281253","lat":"21.760127"},{"id_localidad":455,"nombre":"Ninguno","lon":"-102.294157","lat":"21.824943"},{"id_localidad":456,"nombre":"Monte Prieto","lon":"-102.402431","lat":"21.671182"},{"id_localidad":457,"nombre":"La Rinconada","lon":"-102.35266","lat":"21.708812"},{"id_localidad":458,"nombre":"La Frontera [Granja]","lon":"-102.312204","lat":"21.643448"},{"id_localidad":459,"nombre":"Rancho Viejo","lon":"-102.32962","lat":"21.866996"},{"id_localidad":460,"nombre":"Ninguno","lon":"-102.387939","lat":"21.89634"},{"id_localidad":461,"nombre":"Ninguno","lon":"-102.357536","lat":"21.901852"},{"id_localidad":462,"nombre":"Los Olivos [Condominio Residencial]","lon":"-102.344083","lat":"21.901859"},{"id_localidad":463,"nombre":"Ninguno","lon":"-102.368176","lat":"21.891283"},{"id_localidad":464,"nombre":"Refugio de las Cotorinas [Rancho]","lon":"-102.243575","lat":"21.797657"},{"id_localidad":465,"nombre":"El Centinela [Ejido]","lon":"-102.233606","lat":"21.852915"},{"id_localidad":466,"nombre":"La Discordia","lon":"-102.17117","lat":"21.826121"},{"id_localidad":467,"nombre":"Ninguno","lon":"-102.169834","lat":"21.831527"},{"id_localidad":468,"nombre":"La Loma del Blanco","lon":"-102.137419","lat":"22.008554"},{"id_localidad":469,"nombre":"La Perla [Colonia]","lon":"-102.336471","lat":"21.898026"},{"id_localidad":470,"nombre":"Lomas San Judas Tadeo","lon":"-102.251199","lat":"21.787707"},{"id_localidad":471,"nombre":"El Maguey (La Chaveña)","lon":"-102.399368","lat":"21.748701"},{"id_localidad":472,"nombre":"El Maistrujenio","lon":"-102.19788","lat":"21.801198"},{"id_localidad":473,"nombre":"La Manga del Toro","lon":"-102.383318","lat":"21.840968"},{"id_localidad":474,"nombre":"Loma del Mezquite","lon":"-102.208658","lat":"21.822223"},{"id_localidad":475,"nombre":"Minerales Ganaderos","lon":"-102.29799","lat":"21.830968"},{"id_localidad":476,"nombre":"La Minita","lon":"-102.538554","lat":"21.748248"},{"id_localidad":477,"nombre":"El Mirador","lon":"-102.250039","lat":"21.749517"},{"id_localidad":478,"nombre":"Las Moras","lon":"-102.326099","lat":"21.890057"},{"id_localidad":479,"nombre":"Los Naranjitos","lon":"-102.156668","lat":"21.95488"},{"id_localidad":480,"nombre":"Ojos de Agua la Estancia","lon":"-102.157166","lat":"21.733828"},{"id_localidad":481,"nombre":"Los Palomos","lon":"-102.362947","lat":"21.893259"},{"id_localidad":482,"nombre":"El Plan de Lagos","lon":"-102.228229","lat":"21.775822"},{"id_localidad":483,"nombre":"Don Mónico [Granja]","lon":"-102.183874","lat":"21.998757"},{"id_localidad":484,"nombre":"El Plan del Jaral","lon":"-102.35735","lat":"21.853333"},{"id_localidad":485,"nombre":"Playas de Guadalupe","lon":"-102.353355","lat":"21.892586"},{"id_localidad":486,"nombre":"Potrero del Molino","lon":"-102.362129","lat":"21.832257"},{"id_localidad":487,"nombre":"La Providencia","lon":"-102.342912","lat":"21.842667"},{"id_localidad":488,"nombre":"La Providencia (Granja Mary Chuy)","lon":"-102.328833","lat":"21.894616"},{"id_localidad":489,"nombre":"La Purísima","lon":"-102.388329","lat":"21.901703"},{"id_localidad":490,"nombre":"Rancho Alegre (Número Quince)","lon":"-102.246849","lat":"21.799175"},{"id_localidad":491,"nombre":"Altavista [Rancho]","lon":"-102.250322","lat":"21.800686"},{"id_localidad":492,"nombre":"Los Ángeles [Fraccionamiento]","lon":"-102.292073","lat":"21.75759"},{"id_localidad":493,"nombre":"Las Jaboneras","lon":"-102.119701","lat":"21.746699"},{"id_localidad":494,"nombre":"Rancho del Carmen","lon":"-102.361883","lat":"21.893571"},{"id_localidad":495,"nombre":"Doña María [Rancho]","lon":"-102.337254","lat":"21.891288"},{"id_localidad":496,"nombre":"El Chiflido [Rancho]","lon":"-102.242338","lat":"21.951036"},{"id_localidad":497,"nombre":"El Coyote [Rancho]","lon":"-102.181977","lat":"21.951828"},{"id_localidad":498,"nombre":"El Duraznillo [Rancho]","lon":"-102.156561","lat":"21.785265"},{"id_localidad":499,"nombre":"El Gigante [Rancho]","lon":"-102.246836","lat":"21.775587"},{"id_localidad":500,"nombre":"La Rinconada (La Escondida)","lon":"-102.211432","lat":"21.790739"},{"id_localidad":501,"nombre":"El Niágara [Rancho]","lon":"-102.350323","lat":"21.793633"},{"id_localidad":502,"nombre":"El Quihuihui [Rancho]","lon":"-102.122515","lat":"22.056023"},{"id_localidad":503,"nombre":"El Refugio Número Dos [Rancho]","lon":"-102.248383","lat":"21.798138"},{"id_localidad":504,"nombre":"El Zapote [Rancho]","lon":"-102.227864","lat":"21.759586"},{"id_localidad":505,"nombre":"La Chiripa [Rancho]","lon":"-102.369579","lat":"21.810003"},{"id_localidad":506,"nombre":"San Miguelito de Arriba [Rancho]","lon":"-102.226691","lat":"21.783845"},{"id_localidad":507,"nombre":"La Herradura [Rancho]","lon":"-102.356476","lat":"21.901332"},{"id_localidad":508,"nombre":"La Loma [Rancho]","lon":"-102.304231","lat":"21.682609"},{"id_localidad":509,"nombre":"La Palma [Rancho]","lon":"-102.252206","lat":"21.781055"},{"id_localidad":510,"nombre":"La Soledad [Rancho]","lon":"-102.274043","lat":"21.944192"},{"id_localidad":511,"nombre":"Rancho Nuevo 1880","lon":"-102.129864","lat":"21.726486"},{"id_localidad":512,"nombre":"Porvenir [Rancho]","lon":"-102.134768","lat":"21.725561"},{"id_localidad":513,"nombre":"Potrero de San José","lon":"-102.31277","lat":"21.636283"},{"id_localidad":514,"nombre":"San Martín [Rancho]","lon":"-102.352003","lat":"21.901349"},{"id_localidad":515,"nombre":"Santa Teresa [Rancho]","lon":"-102.23299","lat":"21.77313"},{"id_localidad":516,"nombre":"La Luz [Rancho]","lon":"-102.305713","lat":"21.830897"},{"id_localidad":517,"nombre":"San Nicolás [Granja]","lon":"-102.228849","lat":"21.955098"},{"id_localidad":518,"nombre":"La Laguna del Pedernal","lon":"-102.183078","lat":"21.812741"},{"id_localidad":519,"nombre":"El Rebozo","lon":"-102.374368","lat":"21.860536"},{"id_localidad":520,"nombre":"El Rodeo","lon":"-102.242169","lat":"21.843596"},{"id_localidad":521,"nombre":"El Rosario de María","lon":"-102.164662","lat":"21.830531"},{"id_localidad":522,"nombre":"La Salada","lon":"-102.362766","lat":"21.816408"},{"id_localidad":523,"nombre":"El Salero","lon":"-102.140756","lat":"21.781947"},{"id_localidad":524,"nombre":"San Antonio","lon":"-102.314754","lat":"21.800815"},{"id_localidad":525,"nombre":"San Cristóbal","lon":"-102.374506","lat":"21.887976"},{"id_localidad":526,"nombre":"San Francisco","lon":"-102.307652","lat":"21.824634"},{"id_localidad":527,"nombre":"San Gabriel","lon":"-102.370848","lat":"21.864758"},{"id_localidad":528,"nombre":"San José del Refugio","lon":"-102.362185","lat":"21.908621"},{"id_localidad":529,"nombre":"San Miguelito","lon":"-102.229168","lat":"21.779624"},{"id_localidad":530,"nombre":"San Miguelito de Abajo","lon":"-102.229836","lat":"21.776502"},{"id_localidad":531,"nombre":"Santa Isabel (El Tajito)","lon":"-102.325809","lat":"21.812171"},{"id_localidad":532,"nombre":"Santa Rita","lon":"-102.331907","lat":"21.904766"},{"id_localidad":533,"nombre":"Santa Rosa","lon":"-102.326432","lat":"21.803819"},{"id_localidad":534,"nombre":"Santa Teresa","lon":"-102.238516","lat":"21.844837"},{"id_localidad":535,"nombre":"El Puente [Granja]","lon":"-102.324745","lat":"21.899311"},{"id_localidad":536,"nombre":"El Sauz de los García","lon":"-102.359234","lat":"21.900423"},{"id_localidad":537,"nombre":"El Socorro","lon":"-102.348398","lat":"21.892599"},{"id_localidad":538,"nombre":"El Tanque","lon":"-102.348826","lat":"21.900127"},{"id_localidad":539,"nombre":"Tanque los Carrizos","lon":"-102.334906","lat":"21.894771"},{"id_localidad":540,"nombre":"El Ausente (La Tigra)","lon":"-102.363984","lat":"21.893828"},{"id_localidad":541,"nombre":"Las Trojes (Las Jaboneras)","lon":"-102.118088","lat":"21.746384"},{"id_localidad":542,"nombre":"Urbacon","lon":"-102.32869","lat":"21.841503"},{"id_localidad":543,"nombre":"El Quelite [Viñedos]","lon":"-102.341105","lat":"21.846452"},{"id_localidad":544,"nombre":"Ninguno [Vivero]","lon":"-102.202206","lat":"22.006879"},{"id_localidad":545,"nombre":"El Zancudo","lon":"-102.207759","lat":"22.006337"},{"id_localidad":546,"nombre":"Cañada del Tabaco","lon":"-102.198643","lat":"21.831701"},{"id_localidad":547,"nombre":"Loma del Mezquite","lon":"-102.201494","lat":"21.825382"},{"id_localidad":548,"nombre":"Maíz Prieto","lon":"-102.203056","lat":"21.812749"},{"id_localidad":549,"nombre":"San Juanito (Los López)","lon":"-102.192094","lat":"21.815141"},{"id_localidad":550,"nombre":"San José [Rancho]","lon":"-102.330882","lat":"21.878786"},{"id_localidad":551,"nombre":"El Puertecito [Ampliación del Ejido]","lon":"-102.271466","lat":"21.926689"},{"id_localidad":552,"nombre":"San Antonio [Granja]","lon":"-102.331435","lat":"21.937281"},{"id_localidad":553,"nombre":"Arizona Ranch","lon":"-102.297114","lat":"21.94289"},{"id_localidad":554,"nombre":"Liconsa [Centro de Recría]","lon":"-102.376215","lat":"21.885878"},{"id_localidad":555,"nombre":"El Potrero","lon":"-102.363093","lat":"21.868976"},{"id_localidad":556,"nombre":"Granja Marcela","lon":"-102.383112","lat":"21.888688"},{"id_localidad":557,"nombre":"Las Therezas de Gerardo","lon":"-102.377255","lat":"21.849071"},{"id_localidad":558,"nombre":"Granja Anita","lon":"-102.370321","lat":"21.865122"},{"id_localidad":559,"nombre":"Santa Rita","lon":"-102.367748","lat":"21.85311"},{"id_localidad":560,"nombre":"El Socorro","lon":"-102.372355","lat":"21.852754"},{"id_localidad":561,"nombre":"La Primavera","lon":"-102.350929","lat":"21.849457"},{"id_localidad":562,"nombre":"Los Pavoreales","lon":"-102.215027","lat":"21.899754"},{"id_localidad":563,"nombre":"Los Placeres","lon":"-102.195412","lat":"21.942851"},{"id_localidad":564,"nombre":"Ninguno [Productora de Semillas y Cereales]","lon":"-102.343592","lat":"21.841167"},{"id_localidad":565,"nombre":"San Martín","lon":"-102.361793","lat":"21.886998"},{"id_localidad":566,"nombre":"Valle Redondo [Viñedos]","lon":"-102.353855","lat":"21.864507"},{"id_localidad":567,"nombre":"Bellavista","lon":"-102.268689","lat":"21.761404"},{"id_localidad":568,"nombre":"El Centinela","lon":"-102.220561","lat":"21.85525"},{"id_localidad":569,"nombre":"Centro de Parga","lon":"-102.247917","lat":"21.815869"},{"id_localidad":570,"nombre":"CERESO [Para Varones y Mujeres]","lon":"-102.366958","lat":"21.88119"},{"id_localidad":571,"nombre":"Ninguno [Centro de Reeducación para Menores]","lon":"-102.368069","lat":"21.88824"},{"id_localidad":572,"nombre":"Rinconada [Club]","lon":"-102.348138","lat":"21.711359"},{"id_localidad":573,"nombre":"Los Cocuyos","lon":"-102.221528","lat":"21.957105"},{"id_localidad":574,"nombre":"Salto de Montoro [Colonia]","lon":"-102.278932","lat":"21.762312"},{"id_localidad":575,"nombre":"El Copetillo","lon":"-102.259948","lat":"21.837226"},{"id_localidad":576,"nombre":"El Copetillo Chico","lon":"-102.150286","lat":"21.769164"},{"id_localidad":577,"nombre":"El Futuro","lon":"-102.165565","lat":"21.994916"},{"id_localidad":578,"nombre":"Ejido los Negritos","lon":"-102.360548","lat":"21.855761"},{"id_localidad":579,"nombre":"Entrada a Cotorina","lon":"-102.271309","lat":"21.758909"},{"id_localidad":580,"nombre":"Fracción de Cotorina","lon":"-102.268205","lat":"21.758604"},{"id_localidad":581,"nombre":"Los Girasoles","lon":"-102.118882","lat":"22.032974"},{"id_localidad":582,"nombre":"El Huizache [Granja]","lon":"-102.286934","lat":"21.685973"},{"id_localidad":583,"nombre":"El Molino [Granja]","lon":"-102.360113","lat":"21.849616"},{"id_localidad":584,"nombre":"La Primavera [Granja]","lon":"-102.363988","lat":"21.911465"},{"id_localidad":585,"nombre":"Las Playas [Granja]","lon":"-102.352268","lat":"21.880021"},{"id_localidad":586,"nombre":"Granja Lucy","lon":"-102.351652","lat":"21.898781"},{"id_localidad":587,"nombre":"Granja San Nicolás","lon":"-102.215241","lat":"21.953553"},{"id_localidad":588,"nombre":"Cotorina [Granja]","lon":"-102.273528","lat":"21.748091"},{"id_localidad":589,"nombre":"Ninguno","lon":"-102.39699","lat":"21.679411"},{"id_localidad":590,"nombre":"Ninguno","lon":"-102.373235","lat":"21.869654"},{"id_localidad":591,"nombre":"Ninguno","lon":"-102.364077","lat":"21.844825"},{"id_localidad":592,"nombre":"Ninguno","lon":"-102.371155","lat":"21.847011"},{"id_localidad":593,"nombre":"San Felipe","lon":"-102.398165","lat":"21.745551"},{"id_localidad":594,"nombre":"El Arquito","lon":"-102.481543","lat":"21.733999"},{"id_localidad":595,"nombre":"Loma el Cascarón","lon":"-102.177242","lat":"21.780709"},{"id_localidad":596,"nombre":"Sorayama","lon":"-102.213873","lat":"21.901679"},{"id_localidad":597,"nombre":"La Cabaña","lon":"-102.122473","lat":"21.760345"},{"id_localidad":598,"nombre":"Loma Alta el Paraíso","lon":"-102.228479","lat":"21.866741"},{"id_localidad":599,"nombre":"Plaza Boreal","lon":"-102.2779","lat":"21.730283"},{"id_localidad":600,"nombre":"La Morada","lon":"-102.138174","lat":"21.76"},{"id_localidad":601,"nombre":"El Ocal","lon":"-102.213827","lat":"21.818509"},{"id_localidad":602,"nombre":"La Palma Dos","lon":"-102.250479","lat":"21.78155"},{"id_localidad":603,"nombre":"El Paraíso","lon":"-102.166189","lat":"21.944013"},{"id_localidad":604,"nombre":"El Polvorín (Mirador TV Azteca)","lon":"-102.226872","lat":"21.863738"},{"id_localidad":605,"nombre":"Pozo el Trigo","lon":"-102.194453","lat":"21.887828"},{"id_localidad":606,"nombre":"La Esperanza","lon":"-102.356876","lat":"21.680694"},{"id_localidad":607,"nombre":"Procon","lon":"-102.386576","lat":"21.890166"},{"id_localidad":608,"nombre":"La Puerta al Paraíso","lon":"-102.376622","lat":"21.859859"},{"id_localidad":609,"nombre":"La Luna [Quinta]","lon":"-102.374579","lat":"21.875665"},{"id_localidad":610,"nombre":"Quinta Rosalía","lon":"-102.215556","lat":"21.958605"},{"id_localidad":611,"nombre":"La Esperanza [Quinta]","lon":"-102.455702","lat":"21.727424"},{"id_localidad":612,"nombre":"Rancho Aurora","lon":"-102.381102","lat":"21.726507"},{"id_localidad":613,"nombre":"Coronita [Rancho]","lon":"-102.214439","lat":"21.900769"},{"id_localidad":614,"nombre":"Cielo Grande","lon":"-102.356769","lat":"21.900259"},{"id_localidad":615,"nombre":"Rancho de Rogelio","lon":"-102.239938","lat":"21.788994"},{"id_localidad":616,"nombre":"El Picacho [Rancho]","lon":"-102.403083","lat":"21.882636"},{"id_localidad":617,"nombre":"Los Córdova [Rancho]","lon":"-102.237418","lat":"21.788054"},{"id_localidad":618,"nombre":"San José del Monte [Rancho]","lon":"-102.347778","lat":"21.798593"},{"id_localidad":619,"nombre":"Santa Fe [Rancho]","lon":"-102.240405","lat":"21.926071"},{"id_localidad":620,"nombre":"El Refugio","lon":"-102.142046","lat":"21.732354"},{"id_localidad":621,"nombre":"San Antonio","lon":"-102.169387","lat":"21.992004"},{"id_localidad":622,"nombre":"San Ignacio II y III","lon":"-102.338399","lat":"21.88615"},{"id_localidad":623,"nombre":"San Miguelito","lon":"-102.401144","lat":"21.877774"},{"id_localidad":624,"nombre":"Haro","lon":"-102.227423","lat":"21.789442"},{"id_localidad":625,"nombre":"Los Tres Cuartos","lon":"-102.161116","lat":"21.940587"},{"id_localidad":626,"nombre":"Granja de Lourdes","lon":"-102.353419","lat":"21.851115"},{"id_localidad":627,"nombre":"Xaropa","lon":"-102.345924","lat":"21.829204"},{"id_localidad":628,"nombre":"La Cabaña Roja","lon":"-102.095168","lat":"21.796005"},{"id_localidad":629,"nombre":"La Canterita","lon":"-102.454694","lat":"21.697814"},{"id_localidad":630,"nombre":"Granja Chela","lon":"-102.487299","lat":"21.764245"},{"id_localidad":631,"nombre":"Granja Francis","lon":"-102.230438","lat":"21.910011"},{"id_localidad":632,"nombre":"Granja Marisela (La Carretilla)","lon":"-102.325899","lat":"21.622463"},{"id_localidad":633,"nombre":"El Maguey","lon":"-102.149305","lat":"21.705236"},{"id_localidad":634,"nombre":"La Gaviota [Rancho]","lon":"-102.326971","lat":"21.697171"},{"id_localidad":635,"nombre":"La Puerta Número 5 [Rancho]","lon":"-102.327896","lat":"21.698589"},{"id_localidad":636,"nombre":"Los Álamos [Rancho]","lon":"-102.524973","lat":"21.725843"},{"id_localidad":637,"nombre":"San José","lon":"-102.327171","lat":"21.794089"},{"id_localidad":638,"nombre":"Los Valdez","lon":"-102.200441","lat":"21.819075"},{"id_localidad":639,"nombre":"Los Apalillos","lon":"-102.129545","lat":"22.044611"},{"id_localidad":640,"nombre":"Cañada de los Caballos","lon":"-102.182973","lat":"21.854764"},{"id_localidad":641,"nombre":"Florida Ranch","lon":"-102.199061","lat":"21.931342"},{"id_localidad":642,"nombre":"Norias de Paso Hondo (La Lomita) [Ejido]","lon":"-102.195045","lat":"21.862466"},{"id_localidad":643,"nombre":"El Ranchito","lon":"-102.119391","lat":"22.045891"},{"id_localidad":644,"nombre":"Ninguno","lon":"-102.212554","lat":"21.914853"},{"id_localidad":645,"nombre":"El Mirasol","lon":"-102.10537","lat":"21.765713"},{"id_localidad":646,"nombre":"Los Sánchez","lon":"-102.113591","lat":"21.785746"},{"id_localidad":647,"nombre":"Los Troncones","lon":"-102.126159","lat":"22.048952"},{"id_localidad":648,"nombre":"Granja Lupita","lon":"-102.168352","lat":"21.996163"},{"id_localidad":649,"nombre":"Misión de San Jerónimo [Fraccionamiento]","lon":"-102.335901","lat":"21.887143"},{"id_localidad":650,"nombre":"Anexo al Palomino","lon":"-102.250932","lat":"21.922358"},{"id_localidad":651,"nombre":"La Soledad [Rancho]","lon":"-102.278219","lat":"21.949769"},{"id_localidad":652,"nombre":"El Rocío","lon":"-102.237195","lat":"21.907698"},{"id_localidad":653,"nombre":"Villas del Mediterráneo","lon":"-102.330073","lat":"21.843208"},{"id_localidad":654,"nombre":"El Potrerillo [Fraccionamiento Campestre]","lon":"-102.284052","lat":"21.780387"},{"id_localidad":655,"nombre":"San Sebastián [Fraccionamiento]","lon":"-102.270193","lat":"21.818956"},{"id_localidad":656,"nombre":"Cartagena [Fraccionamiento]","lon":"-102.276325","lat":"21.956463"},{"id_localidad":657,"nombre":"Transgresa","lon":"-102.37142","lat":"21.865664"},{"id_localidad":658,"nombre":"El Árbol","lon":"-102.217217","lat":"21.824363"},{"id_localidad":659,"nombre":"El Centinela","lon":"-102.238549","lat":"21.846767"},{"id_localidad":660,"nombre":"Che Guevara [Colonia]","lon":"-102.207906","lat":"21.889889"},{"id_localidad":661,"nombre":"Costa Chica","lon":"-102.388042","lat":"21.727898"},{"id_localidad":662,"nombre":"Las Durazneras","lon":"-102.385904","lat":"21.89913"},{"id_localidad":663,"nombre":"Edén los Sabinos","lon":"-102.364818","lat":"21.735745"},{"id_localidad":664,"nombre":"Venustiano Carranza [Ejido]","lon":"-102.384149","lat":"21.773718"},{"id_localidad":665,"nombre":"Vista Hermosa [Fraccionamiento]","lon":"-102.197086","lat":"21.891073"},{"id_localidad":666,"nombre":"Amarillo [Granja]","lon":"-102.351178","lat":"21.878641"},{"id_localidad":667,"nombre":"La Salada [Granja]","lon":"-102.352419","lat":"21.812499"},{"id_localidad":668,"nombre":"La Trinidad [Granja]","lon":"-102.354651","lat":"21.785207"},{"id_localidad":669,"nombre":"Las Palmas [Granja]","lon":"-102.336879","lat":"21.903787"},{"id_localidad":670,"nombre":"Ninguno","lon":"-102.326634","lat":"21.70026"},{"id_localidad":671,"nombre":"Ninguno","lon":"-102.337724","lat":"21.904104"},{"id_localidad":672,"nombre":"El Maguey","lon":"-102.405734","lat":"21.74044"},{"id_localidad":673,"nombre":"El Paraíso","lon":"-102.358243","lat":"21.895816"},{"id_localidad":674,"nombre":"El Pastizal","lon":"-102.389708","lat":"21.727765"},{"id_localidad":675,"nombre":"Rancho Alegre","lon":"-102.381288","lat":"21.791731"},{"id_localidad":676,"nombre":"Cañada de las Palmas [Rancho]","lon":"-102.197714","lat":"21.806914"},{"id_localidad":677,"nombre":"Rancho de la Ciudad de los Niños","lon":"-102.365757","lat":"21.843898"},{"id_localidad":678,"nombre":"El Ciervo [Rancho]","lon":"-102.327339","lat":"21.702302"},{"id_localidad":679,"nombre":"La Roca [Rancho]","lon":"-102.248995","lat":"21.776185"},{"id_localidad":680,"nombre":"Los Bajíos de San Bartolo [Rancho]","lon":"-102.166606","lat":"21.731731"},{"id_localidad":681,"nombre":"Peñuelas [Rancho]","lon":"-102.236059","lat":"21.753003"},{"id_localidad":682,"nombre":"Santa Fe (El Arquito) [Rancho]","lon":"-102.476838","lat":"21.731842"},{"id_localidad":683,"nombre":"San Joaquín","lon":"-102.373262","lat":"21.729283"},{"id_localidad":684,"nombre":"San Miguel","lon":"-102.19703","lat":"21.896555"},{"id_localidad":685,"nombre":"Los Cascabeles","lon":"-102.372922","lat":"21.853839"},{"id_localidad":686,"nombre":"Las Trancas","lon":"-102.389424","lat":"21.742215"},{"id_localidad":687,"nombre":"Aguascalientes [Hípico]","lon":"-102.361631","lat":"21.914237"},{"id_localidad":688,"nombre":"Rancho Seco","lon":"-102.358429","lat":"21.910699"},{"id_localidad":689,"nombre":"Pedregal San Miguel Kilómetro 2.5","lon":"-102.376094","lat":"21.903131"},{"id_localidad":690,"nombre":"Calvillito (Barrio de la Escuela)","lon":"-102.190895","lat":"21.840945"},{"id_localidad":691,"nombre":"Calvillito (Colonia Revolución)","lon":"-102.187211","lat":"21.842458"},{"id_localidad":692,"nombre":"Norias de Ojocaliente","lon":"-102.224126","lat":"21.886155"},{"id_localidad":693,"nombre":"San Luis Gonzaga","lon":"-102.35423","lat":"21.639705"},{"id_localidad":694,"nombre":"Las Majadas","lon":"-102.107061","lat":"21.799738"},{"id_localidad":695,"nombre":"Las Plazas [Condominio]","lon":"-102.280129","lat":"21.944798"},{"id_localidad":696,"nombre":"Montebello Della Stanza [Fraccionamiento]","lon":"-102.272609","lat":"21.936514"},{"id_localidad":697,"nombre":"Paseos de San Antonio [Fraccionamiento]","lon":"-102.265812","lat":"21.808967"},{"id_localidad":698,"nombre":"Bosques de las Lomas [Fraccionamiento Campestre]","lon":"-102.358991","lat":"21.73393"},{"id_localidad":699,"nombre":"La Cañada","lon":"-102.368917","lat":"21.719416"},{"id_localidad":700,"nombre":"La Curva","lon":"-102.14821","lat":"22.004263"},{"id_localidad":701,"nombre":"Real Cañada Honda [Fraccionamiento Campestre Ecuestre]","lon":"-102.191845","lat":"21.996508"},{"id_localidad":702,"nombre":"Ejido Cañada Honda (Kilómetro 13.5)","lon":"-102.173611","lat":"22.000821"},{"id_localidad":703,"nombre":"La Escondida","lon":"-102.353376","lat":"21.765348"},{"id_localidad":704,"nombre":"El Jano","lon":"-102.353333","lat":"21.76111"},{"id_localidad":705,"nombre":"El Matorral","lon":"-102.161454","lat":"21.953363"},{"id_localidad":706,"nombre":"Las Palomas","lon":"-102.358635","lat":"21.728239"},{"id_localidad":707,"nombre":"Potrero la Tomatina","lon":"-102.409887","lat":"21.888393"},{"id_localidad":708,"nombre":"Q Campestre [Condominio]","lon":"-102.341706","lat":"21.923346"},{"id_localidad":709,"nombre":"Rinconada de San Ignacio [Condominio]","lon":"-102.344426","lat":"21.900794"},{"id_localidad":710,"nombre":"Ruscello [Condominio]","lon":"-102.341963","lat":"21.924334"},{"id_localidad":711,"nombre":"Pozo Bravo [Rancho]","lon":"-102.27131","lat":"21.940789"},{"id_localidad":712,"nombre":"Granjas del Valle","lon":"-102.353161","lat":"21.880638"},{"id_localidad":713,"nombre":"Ninguno","lon":"-102.227029","lat":"21.892731"},{"id_localidad":714,"nombre":"Norias de Ojocaliente (Caballo Blanco)","lon":"-102.226173","lat":"21.882856"},{"id_localidad":715,"nombre":"Paseos de Michoacán","lon":"-102.209844","lat":"21.886548"},{"id_localidad":716,"nombre":"La Presa de la Ahuja [Rancho]","lon":"-102.170801","lat":"21.821104"},{"id_localidad":717,"nombre":"La Providencia de Arriba","lon":"-102.358181","lat":"21.707451"},{"id_localidad":718,"nombre":"El Refugio de Santo Tomas [Rancho]","lon":"-102.376636","lat":"21.839759"},{"id_localidad":719,"nombre":"El Socorro (José López Medina)","lon":"-102.165745","lat":"21.874793"},{"id_localidad":720,"nombre":"El Soyatal","lon":"-102.231082","lat":"21.895324"},{"id_localidad":721,"nombre":"El Tordillo","lon":"-102.495724","lat":"21.750703"},{"id_localidad":722,"nombre":"Villa Antigua","lon":"-102.158325","lat":"21.888751"},{"id_localidad":723,"nombre":"Villa Guadalupe","lon":"-102.223096","lat":"21.878904"},{"id_localidad":724,"nombre":"Norias del Paso Hondo","lon":"-102.20515","lat":"21.853009"},{"id_localidad":725,"nombre":"Residencial Hacienda San Martín [Fraccionamiento]","lon":"-102.275101","lat":"21.794123"},{"id_localidad":726,"nombre":"Don Toño","lon":"-102.234018","lat":"21.876744"},{"id_localidad":727,"nombre":"Punta del Cielo [Fraccionamiento Residencial]","lon":"-102.355498","lat":"21.906158"},{"id_localidad":728,"nombre":"El Conejal [Ampliación Ejido]","lon":"-102.179005","lat":"21.963963"},{"id_localidad":729,"nombre":"El Fresno","lon":"-102.157263","lat":"21.965891"},{"id_localidad":730,"nombre":"Los Gavilanes","lon":"-102.269081","lat":"21.825963"},{"id_localidad":731,"nombre":"Lomas del Soyatal","lon":"-102.22521","lat":"21.897068"},{"id_localidad":732,"nombre":"La Meseta","lon":"-102.147313","lat":"21.977409"},{"id_localidad":733,"nombre":"Ninguno","lon":"-102.218345","lat":"21.863704"},{"id_localidad":734,"nombre":"Norias de Ojocaliente [Ejido]","lon":"-102.200738","lat":"21.877473"},{"id_localidad":735,"nombre":"Ranchito de Abajo","lon":"-102.265139","lat":"21.700306"},{"id_localidad":736,"nombre":"San Antonio de Peñuelas [Ejido]","lon":"-102.324468","lat":"21.685165"},{"id_localidad":737,"nombre":"Villa de la Luz [Granja]","lon":"-102.271365","lat":"21.788149"},{"id_localidad":738,"nombre":"Villas de las Norias [Fraccionamiento]","lon":"-102.227673","lat":"21.880251"},{"id_localidad":739,"nombre":"Xenia Residencial [Condominio]","lon":"-102.352572","lat":"21.853644"},{"id_localidad":740,"nombre":"Arroyo Zarco [Rancho]","lon":"-102.454928","lat":"21.699315"},{"id_localidad":741,"nombre":"Rosa de los Vientos [Estancia para Adultos Mayores]","lon":"-102.326089","lat":"21.896369"},{"id_localidad":742,"nombre":"Nissan Mexicana [Planta Nissan II]","lon":"-102.279612","lat":"21.734748"},{"id_localidad":743,"nombre":"Parque Industrial FINSA","lon":"-102.284238","lat":"21.745888"},{"id_localidad":744,"nombre":"Parque Industrial Micro Productivo Rafael Medina Gonzales","lon":"-102.178283","lat":"21.867225"},{"id_localidad":745,"nombre":"Parque Industrial Tecnopolo 2 (PITP2)","lon":"-102.351778","lat":"21.895338"},{"id_localidad":746,"nombre":"Tecnológico de Monterrey","lon":"-102.33994","lat":"21.932567"},{"id_localidad":747,"nombre":"Universidad Autonoma de Aguascalientes (Campus Sur)","lon":"-102.291183","lat":"21.793191"},{"id_localidad":748,"nombre":"Parque Industrial Douki Seisan Park (DSP)","lon":"-102.292961","lat":"21.737722"},{"id_localidad":749,"nombre":"Los Arcangeles [Rancho]","lon":"-102.259628","lat":"21.796886"},{"id_localidad":750,"nombre":"El Carril","lon":"-102.318605","lat":"21.630769"},{"id_localidad":751,"nombre":"Lic. Jesús Terán Peredo [Aeropuerto]","lon":"-102.314064","lat":"21.701301"},{"id_localidad":752,"nombre":"Manuel Sosa Palos (El Niagara)","lon":"-102.356684","lat":"21.766624"},{"id_localidad":753,"nombre":"Nicolas López Muñoz [Rancho]","lon":"-102.359203","lat":"21.751734"},{"id_localidad":754,"nombre":"La Palapa","lon":"-102.236157","lat":"21.793778"},{"id_localidad":755,"nombre":"Palma [Rancho]","lon":"-102.380393","lat":"21.817963"},{"id_localidad":756,"nombre":"San José [Quinta]","lon":"-102.383911","lat":"21.81287"}]